[{"id":0,"name":"Le kraft","description":"Un bar plutôt cher","type":"entreprise","longitude":6.024489718361363,"lattitude":47.2379370805839},{"id":1,"name":"Moi","description":"Mon adresse personnelle","type":"particulier","longitude":5.998612306689477,"lattitude":47.24530471297956},{"id":2,"name":"Université","description":"The best of the promo","type":"collectivite","longitude":5.987844058331042,"lattitude":47.244928068199904},{"id":3,"name":"dfzef","description":"zefzef","type":"entreprise","longitude":6.038420565803136,"lattitude":47.244299262000055},{"id":4,"name":"Hyvila","description":"Le meilleur stage de ma vie !","type":"entreprise","longitude":5.997868167997694,"lattitude":47.25210873003073},{"id":5,"name":"Le kraft","description":"Un bar plutôt cher","type":"entreprise","longitude":6.024489718361363,"lattitude":47.2379370805839},{"id":6,"name":"Moi","description":"Mon adresse personnelle","type":"particulier","longitude":5.998612306689477,"lattitude":47.24530471297956},{"id":7,"name":"Université","description":"The best of the promo","type":"collectivite","longitude":5.987844058331042,"lattitude":47.244928068199904},{"id":8,"name":"dfzef","description":"zefzef","type":"entreprise","longitude":6.038420565803136,"lattitude":47.244299262000055},{"id":9,"name":"Hyvila","description":"Le meilleur stage de ma vie !","type":"entreprise","longitude":5.997868167997694,"lattitude":47.25210873003073},{"id":10,"name":"efze","description":"fzefze","type":"particulier","longitude":6.004025983386839,"lattitude":47.23926457079108},{"id":11,"name":"dfgdr","description":"egrer","type":"particulier","longitude":6.0137621193019015,"lattitude":47.235289035096116},{"id":12,"name":"zrz\"'efr","description":"rzerfzfr","type":"particulier","longitude":6.042110927554404,"lattitude":47.24156085107586},{"id":13,"name":"zefze","description":"zefzef","type":"entreprise","longitude":6.046698993790812,"lattitude":47.2372672206923}]